{
"type": "FeatureCollection",
"crs": { "type": "name", "properties": { "name": "urn:ogc:def:crs:OGC:1.3:CRS84" } },
                                                                                
"features": [
{ "type": "Feature", "properties": { "NAME": "16TH & MISSION", "max_slope": 0.02, "long": -122.4196972, "ID": 0, "traffic_signal": 1, "quarter_mile_households": 0.2681, "TargetVol": 11962747, "AnnualPeds": 6705798.78273, "lat": 37.7650548, "quarter_mile_employment": 0.03754, "high_activity_zone": 1, "LN_TargetVol": 16.29731, "quarter_mile_campus": 0 }, "geometry": { "type": "Point", "coordinates": [ -122.4196972, 37.7650548 ] } },
{ "type": "Feature", "properties": { "NAME": "18TH & CASTRO", "max_slope": 0.05, "long": -122.4349914, "ID": 1, "traffic_signal": 1, "quarter_mile_households": 0.2554, "TargetVol": 4038556, "AnnualPeds": 4761041.47717, "lat": 37.7608915, "quarter_mile_employment": 0.0221, "high_activity_zone": 1, "LN_TargetVol": 15.2114, "quarter_mile_campus": 0 }, "geometry": { "type": "Point", "coordinates": [ -122.4349914, 37.7608915 ] } },
{ "type": "Feature", "properties": { "NAME": "18TH & TEXAS", "max_slope": 0.18, "long": -122.3955824, "ID": 2, "traffic_signal": 0, "quarter_mile_households": 0.1276, "TargetVol": 552118, "AnnualPeds": 97537.617198699997971, "lat": 37.7626506, "quarter_mile_employment": 0.02018, "high_activity_zone": 0, "LN_TargetVol": 13.22152, "quarter_mile_campus": 0 }, "geometry": { "type": "Point", "coordinates": [ -122.3955824, 37.7626506 ] } },
{ "type": "Feature", "properties": { "NAME": "19TH & TARAVAL", "max_slope": 0.06, "long": -122.4755984, "ID": 3, "traffic_signal": 1, "quarter_mile_households": 0.0976, "TargetVol": 1463808, "AnnualPeds": 3164683.15644, "lat": 37.7430565, "quarter_mile_employment": 0.01025, "high_activity_zone": 1, "LN_TargetVol": 14.19655, "quarter_mile_campus": 0 }, "geometry": { "type": "Point", "coordinates": [ -122.4755984, 37.7430565 ] } },
{ "type": "Feature", "properties": { "NAME": "20TH & S VAN NESS", "max_slope": 0.05, "long": -122.4168824, "ID": 4, "traffic_signal": 1, "quarter_mile_households": 0.2488, "TargetVol": 1342265, "AnnualPeds": 1356404.35509, "lat": 37.7587728, "quarter_mile_employment": 0.03293, "high_activity_zone": 0, "LN_TargetVol": 14.10987, "quarter_mile_campus": 0 }, "geometry": { "type": "Point", "coordinates": [ -122.4168824, 37.7587728 ] } },
{ "type": "Feature", "properties": { "NAME": "24TH & CASTRO", "max_slope": 0.14, "long": -122.4340749, "ID": 5, "traffic_signal": 1, "quarter_mile_households": 0.2253, "TargetVol": 4442488, "AnnualPeds": 1902132.15158, "lat": 37.7512991, "quarter_mile_employment": 0.0151, "high_activity_zone": 1, "LN_TargetVol": 15.30673, "quarter_mile_campus": 0 }, "geometry": { "type": "Point", "coordinates": [ -122.4340749, 37.7512991 ] } },
{ "type": "Feature", "properties": { "NAME": "25TH & GEARY", "max_slope": 0.03, "long": -122.4847136, "ID": 6, "traffic_signal": 1, "quarter_mile_households": 0.272, "TargetVol": 3616816, "AnnualPeds": 5792109.97347, "lat": 37.7800179, "quarter_mile_employment": 0.01304, "high_activity_zone": 1, "LN_TargetVol": 15.1011, "quarter_mile_campus": 0 }, "geometry": { "type": "Point", "coordinates": [ -122.4847136, 37.7800179 ] } },
{ "type": "Feature", "properties": { "NAME": "34TH & KIRKHAM", "max_slope": 0.07, "long": -122.4929357, "ID": 7, "traffic_signal": 0, "quarter_mile_households": 0.1451, "TargetVol": 136311, "AnnualPeds": 272878.248909, "lat": 37.7591294, "quarter_mile_employment": 0.005, "high_activity_zone": 0, "LN_TargetVol": 11.82269, "quarter_mile_campus": 0 }, "geometry": { "type": "Point", "coordinates": [ -122.4929357, 37.7591294 ] } },
{ "type": "Feature", "properties": { "NAME": "3RD & HOWARD", "max_slope": 0.02, "long": -122.4004921, "ID": 8, "traffic_signal": 1, "quarter_mile_households": 0.1118, "TargetVol": 9221855, "AnnualPeds": 8215686.72504, "lat": 37.7850247, "quarter_mile_employment": 0.23753, "high_activity_zone": 1, "LN_TargetVol": 16.03709, "quarter_mile_campus": 0 }, "geometry": { "type": "Point", "coordinates": [ -122.4004921, 37.7850247 ] } },
{ "type": "Feature", "properties": { "NAME": "43RD & ANZA", "max_slope": 0.14, "long": -122.5038924, "ID": 9, "traffic_signal": 0, "quarter_mile_households": 0.1535, "TargetVol": 108925, "AnnualPeds": 143666.310314, "lat": 37.7773134, "quarter_mile_employment": 0.00552, "high_activity_zone": 0, "LN_TargetVol": 11.59841, "quarter_mile_campus": 0 }, "geometry": { "type": "Point", "coordinates": [ -122.5038924, 37.7773134 ] } },
{ "type": "Feature", "properties": { "NAME": "4TH & BERRY", "max_slope": 0.02, "long": -122.3934092, "ID": 10, "traffic_signal": 0, "quarter_mile_households": 0.1762, "TargetVol": 3860656, "AnnualPeds": 1861205.0272, "lat": 37.7757489, "quarter_mile_employment": 0.05589, "high_activity_zone": 1, "LN_TargetVol": 15.16635, "quarter_mile_campus": 0 }, "geometry": { "type": "Point", "coordinates": [ -122.3934092, 37.7757489 ] } },
{ "type": "Feature", "properties": { "NAME": "4TH & MARKET", "max_slope": 0.03, "long": -122.3900077, "ID": 11, "traffic_signal": 1, "quarter_mile_households": 0.2814, "TargetVol": 38931507, "AnnualPeds": 11293372.4187, "lat": 37.7857293, "quarter_mile_employment": 0.28082, "high_activity_zone": 1, "LN_TargetVol": 17.47731, "quarter_mile_campus": 0 }, "geometry": { "type": "Point", "coordinates": [ -122.3900077, 37.7857293 ] } },
{ "type": "Feature", "properties": { "NAME": "6TH & MARKET", "max_slope": 0.03, "long": -122.4017538, "ID": 12, "traffic_signal": 1, "quarter_mile_households": 0.5941, "TargetVol": 18394224, "AnnualPeds": 13325969.722, "lat": 37.7754348, "quarter_mile_employment": 0.11601, "high_activity_zone": 1, "LN_TargetVol": 16.72755, "quarter_mile_campus": 0 }, "geometry": { "type": "Point", "coordinates": [ -122.4017538, 37.7754348 ] } },
{ "type": "Feature", "properties": { "NAME": "7TH & FOLSOM", "max_slope": 0.02, "long": -122.4078552, "ID": 13, "traffic_signal": 1, "quarter_mile_households": 0.1748, "TargetVol": 4442735, "AnnualPeds": 1647784.80264, "lat": 37.7767666, "quarter_mile_employment": 0.05208, "high_activity_zone": 0, "LN_TargetVol": 15.30678, "quarter_mile_campus": 0 }, "geometry": { "type": "Point", "coordinates": [ -122.4078552, 37.7767666 ] } },
{ "type": "Feature", "properties": { "NAME": "8TH & MARKET", "max_slope": 0.02, "long": -122.4027114, "ID": 14, "traffic_signal": 1, "quarter_mile_households": 0.38, "TargetVol": 14007348, "AnnualPeds": 10461074.1235, "lat": 37.7787319, "quarter_mile_employment": 0.13719, "high_activity_zone": 1, "LN_TargetVol": 16.45509, "quarter_mile_campus": 0 }, "geometry": { "type": "Point", "coordinates": [ -122.4027114, 37.7787319 ] } },
{ "type": "Feature", "properties": { "NAME": "ATHENS & CORDOVA", "max_slope": 0.08, "long": -122.4358464, "ID": 15, "traffic_signal": 0, "quarter_mile_households": 0.1195, "TargetVol": 176432, "AnnualPeds": 237097.39854, "lat": 37.7122677, "quarter_mile_employment": 0.00491, "high_activity_zone": 0, "LN_TargetVol": 12.08069, "quarter_mile_campus": 0 }, "geometry": { "type": "Point", "coordinates": [ -122.4358464, 37.7122677 ] } },
{ "type": "Feature", "properties": { "NAME": "BEACH & HYDE", "max_slope": 0.1, "long": -122.4205863, "ID": 16, "traffic_signal": 1, "quarter_mile_households": 0.1768, "TargetVol": 9849287, "AnnualPeds": 2673885.45727, "lat": 37.8066754, "quarter_mile_employment": 0.03664, "high_activity_zone": 1, "LN_TargetVol": 16.10291, "quarter_mile_campus": 0 }, "geometry": { "type": "Point", "coordinates": [ -122.4205863, 37.8066754 ] } },
{ "type": "Feature", "properties": { "NAME": "BEVERLY & GARFIELD", "max_slope": 0.09, "long": -122.471663, "ID": 17, "traffic_signal": 0, "quarter_mile_households": 0.1126, "TargetVol": 230007, "AnnualPeds": 401110.16731, "lat": 37.7196385, "quarter_mile_employment": 0.00378, "high_activity_zone": 0, "LN_TargetVol": 12.34587, "quarter_mile_campus": 1 }, "geometry": { "type": "Point", "coordinates": [ -122.471663, 37.7196385 ] } },
{ "type": "Feature", "properties": { "NAME": "BURROWS & HAMILTON", "max_slope": 0.17, "long": -122.4100392, "ID": 18, "traffic_signal": 0, "quarter_mile_households": 0.1035, "TargetVol": 22771, "AnnualPeds": 98545.869601700003841, "lat": 37.7272881, "quarter_mile_employment": 0.00368, "high_activity_zone": 0, "LN_TargetVol": 10.03324, "quarter_mile_campus": 0 }, "geometry": { "type": "Point", "coordinates": [ -122.4100392, 37.7272881 ] } },
{ "type": "Feature", "properties": { "NAME": "CABRILLO & 30TH", "max_slope": 0.09, "long": -122.489684, "ID": 19, "traffic_signal": 0, "quarter_mile_households": 0.1684, "TargetVol": 144567, "AnnualPeds": 235844.908357, "lat": 37.7741914, "quarter_mile_employment": 0.00499, "high_activity_zone": 0, "LN_TargetVol": 11.8815, "quarter_mile_campus": 0 }, "geometry": { "type": "Point", "coordinates": [ -122.489684, 37.7741914 ] } },
{ "type": "Feature", "properties": { "NAME": "CALIFORNIA & MONTGOMERY", "max_slope": 0.06, "long": -122.4028272, "ID": 20, "traffic_signal": 1, "quarter_mile_households": 0.1962, "TargetVol": 15222876, "AnnualPeds": 23023587.6874, "lat": 37.792877, "quarter_mile_employment": 0.75346, "high_activity_zone": 1, "LN_TargetVol": 16.53831, "quarter_mile_campus": 0 }, "geometry": { "type": "Point", "coordinates": [ -122.4028272, 37.792877 ] } },
{ "type": "Feature", "properties": { "NAME": "CHESTNUT & STEINER", "max_slope": 0.03, "long": -122.4378847, "ID": 21, "traffic_signal": 0, "quarter_mile_households": 0.2593, "TargetVol": 7864052, "AnnualPeds": 1877350.25165, "lat": 37.8006154, "quarter_mile_employment": 0.03623, "high_activity_zone": 1, "LN_TargetVol": 15.87781, "quarter_mile_campus": 0 }, "geometry": { "type": "Point", "coordinates": [ -122.4378847, 37.8006154 ] } },
{ "type": "Feature", "properties": { "NAME": "COLUMBUS & UNION", "max_slope": 0.04, "long": -122.4102998, "ID": 22, "traffic_signal": 1, "quarter_mile_households": 0.5625, "TargetVol": 8791857, "AnnualPeds": 9531867.34217, "lat": 37.8003337, "quarter_mile_employment": 0.04034, "high_activity_zone": 1, "LN_TargetVol": 15.98934, "quarter_mile_campus": 0 }, "geometry": { "type": "Point", "coordinates": [ -122.4102998, 37.8003337 ] } },
{ "type": "Feature", "properties": { "NAME": "DIVISADERO & GEARY", "max_slope": 0.06, "long": -122.4394308, "ID": 23, "traffic_signal": 1, "quarter_mile_households": 0.2836, "TargetVol": 3230162, "AnnualPeds": 4661691.85861, "lat": 37.7833959, "quarter_mile_employment": 0.0311, "high_activity_zone": 1, "LN_TargetVol": 14.98804, "quarter_mile_campus": 0 }, "geometry": { "type": "Point", "coordinates": [ -122.4394308, 37.7833959 ] } },
{ "type": "Feature", "properties": { "NAME": "EVELYN & JUANITA", "max_slope": 0.04, "long": -122.4534605, "ID": 24, "traffic_signal": 0, "quarter_mile_households": 0.0836, "TargetVol": 131002, "AnnualPeds": 324508.205045, "lat": 37.7434163, "quarter_mile_employment": 0.00607, "high_activity_zone": 0, "LN_TargetVol": 11.78297, "quarter_mile_campus": 0 }, "geometry": { "type": "Point", "coordinates": [ -122.4534605, 37.7434163 ] } },
{ "type": "Feature", "properties": { "NAME": "GENEVA & OCEAN", "max_slope": 0.11, "long": -122.4521753, "ID": 25, "traffic_signal": 1, "quarter_mile_households": 0.1206, "TargetVol": 2655255, "AnnualPeds": 1077153.20753, "lat": 37.7229855, "quarter_mile_employment": 0.00434, "high_activity_zone": 0, "LN_TargetVol": 14.79205, "quarter_mile_campus": 1 }, "geometry": { "type": "Point", "coordinates": [ -122.4521753, 37.7229855 ] } },
{ "type": "Feature", "properties": { "NAME": "GOLDEN GATE & JONES", "max_slope": 0.04, "long": -122.4122427, "ID": 26, "traffic_signal": 1, "quarter_mile_households": 0.6336, "TargetVol": 3856503, "AnnualPeds": 12293665.6514, "lat": 37.7820851, "quarter_mile_employment": 0.09209, "high_activity_zone": 1, "LN_TargetVol": 15.16527, "quarter_mile_campus": 0 }, "geometry": { "type": "Point", "coordinates": [ -122.4122427, 37.7820851 ] } },
{ "type": "Feature", "properties": { "NAME": "HARRISON & 25TH", "max_slope": 0.03, "long": -122.411769, "ID": 27, "traffic_signal": 0, "quarter_mile_households": 0.2338, "TargetVol": 1155539, "AnnualPeds": 475807.195649, "lat": 37.7510362, "quarter_mile_employment": 0.013, "high_activity_zone": 0, "LN_TargetVol": 13.96008, "quarter_mile_campus": 0 }, "geometry": { "type": "Point", "coordinates": [ -122.411769, 37.7510362 ] } },
{ "type": "Feature", "properties": { "NAME": "IRVING & 9TH", "max_slope": 0.04, "long": -122.4663219, "ID": 28, "traffic_signal": 1, "quarter_mile_households": 0.2485, "TargetVol": 8321939, "AnnualPeds": 9735811.96412, "lat": 37.7640492, "quarter_mile_employment": 0.02162, "high_activity_zone": 1, "LN_TargetVol": 15.93441, "quarter_mile_campus": 1 }, "geometry": { "type": "Point", "coordinates": [ -122.4663219, 37.7640492 ] } },
{ "type": "Feature", "properties": { "NAME": "JFK & STANYAN", "max_slope": 0.04, "long": -122.4540587, "ID": 29, "traffic_signal": 1, "quarter_mile_households": 0.1447, "TargetVol": 1808562, "AnnualPeds": 2314054.41033, "lat": 37.7714822, "quarter_mile_employment": 0.03029, "high_activity_zone": 0, "LN_TargetVol": 14.40804, "quarter_mile_campus": 1 }, "geometry": { "type": "Point", "coordinates": [ -122.4540587, 37.7714822 ] } },
{ "type": "Feature", "properties": { "NAME": "LAGUNA & GEARY", "max_slope": 0.07, "long": -122.4279608, "ID": 30, "traffic_signal": 1, "quarter_mile_households": 0.3848, "TargetVol": 2007151, "AnnualPeds": 5236201.5584, "lat": 37.7848914, "quarter_mile_employment": 0.04223, "high_activity_zone": 1, "LN_TargetVol": 14.51223, "quarter_mile_campus": 0 }, "geometry": { "type": "Point", "coordinates": [ -122.4279608, 37.7848914 ] } },
{ "type": "Feature", "properties": { "NAME": "LAKE & 6TH", "max_slope": 0.06, "long": -122.4646996, "ID": 31, "traffic_signal": 0, "quarter_mile_households": 0.1848, "TargetVol": 379642, "AnnualPeds": 327497.23786, "lat": 37.7866775, "quarter_mile_employment": 0.01183, "high_activity_zone": 0, "LN_TargetVol": 12.84698, "quarter_mile_campus": 0 }, "geometry": { "type": "Point", "coordinates": [ -122.4646996, 37.7866775 ] } },
{ "type": "Feature", "properties": { "NAME": "LELAND & RUTLAND", "max_slope": 0.05, "long": -122.4073921, "ID": 32, "traffic_signal": 0, "quarter_mile_households": 0.1251, "TargetVol": 482762, "AnnualPeds": 1130277.23352, "lat": 37.7125625, "quarter_mile_employment": 0.00475, "high_activity_zone": 1, "LN_TargetVol": 13.08728, "quarter_mile_campus": 0 }, "geometry": { "type": "Point", "coordinates": [ -122.4073921, 37.7125625 ] } },
{ "type": "Feature", "properties": { "NAME": "MARIPOSA & KANSAS", "max_slope": 0.14, "long": -122.4034149, "ID": 33, "traffic_signal": 0, "quarter_mile_households": 0.0933, "TargetVol": 126977, "AnnualPeds": 136934.13188, "lat": 37.7634508, "quarter_mile_employment": 0.03061, "high_activity_zone": 0, "LN_TargetVol": 11.75176, "quarter_mile_campus": 0 }, "geometry": { "type": "Point", "coordinates": [ -122.4034149, 37.7634508 ] } },
{ "type": "Feature", "properties": { "NAME": "MISSION & 6TH", "max_slope": 0.06, "long": -122.4087183, "ID": 34, "traffic_signal": 1, "quarter_mile_households": 0.3773, "TargetVol": 6425997, "AnnualPeds": 6776329.89546, "lat": 37.7809857, "quarter_mile_employment": 0.11524, "high_activity_zone": 1, "LN_TargetVol": 15.67586, "quarter_mile_campus": 0 }, "geometry": { "type": "Point", "coordinates": [ -122.4087183, 37.7809857 ] } },
{ "type": "Feature", "properties": { "NAME": "MISSION & SILVER", "max_slope": 0.06, "long": -122.4312801, "ID": 35, "traffic_signal": 1, "quarter_mile_households": 0.1288, "TargetVol": 3356683, "AnnualPeds": 937433.217854, "lat": 37.7287511, "quarter_mile_employment": 0.00896, "high_activity_zone": 0, "LN_TargetVol": 15.02646, "quarter_mile_campus": 0 }, "geometry": { "type": "Point", "coordinates": [ -122.4312801, 37.7287511 ] } },
{ "type": "Feature", "properties": { "NAME": "MOUNT VERNON & ALEMANY", "max_slope": 0.08, "long": -122.4446033, "ID": 36, "traffic_signal": 1, "quarter_mile_households": 0.1219, "TargetVol": 232535, "AnnualPeds": 763763.52654, "lat": 37.7161115, "quarter_mile_employment": 0.00715, "high_activity_zone": 0, "LN_TargetVol": 12.3568, "quarter_mile_campus": 0 }, "geometry": { "type": "Point", "coordinates": [ -122.4446033, 37.7161115 ] } },
{ "type": "Feature", "properties": { "NAME": "NEWHALL & JERROLD", "max_slope": 0.08, "long": -122.4194155, "ID": 37, "traffic_signal": 1, "quarter_mile_households": 0.0807, "TargetVol": 304923, "AnnualPeds": 717336.194354, "lat": 37.7749295, "quarter_mile_employment": 0.01203, "high_activity_zone": 0, "LN_TargetVol": 12.62781, "quarter_mile_campus": 0 }, "geometry": { "type": "Point", "coordinates": [ -122.4194155, 37.7749295 ] } },
{ "type": "Feature", "properties": { "NAME": "OAKDALE & BAYSHORE", "max_slope": 0.18, "long": -122.4051914, "ID": 38, "traffic_signal": 1, "quarter_mile_households": 0.0571, "TargetVol": 360613, "AnnualPeds": 278231.19952, "lat": 37.743019, "quarter_mile_employment": 0.02669, "high_activity_zone": 0, "LN_TargetVol": 12.79556, "quarter_mile_campus": 0 }, "geometry": { "type": "Point", "coordinates": [ -122.4051914, 37.743019 ] } },
{ "type": "Feature", "properties": { "NAME": "PACHECO & CASTENADA", "max_slope": 0.13, "long": -122.462333, "ID": 39, "traffic_signal": 0, "quarter_mile_households": 0.0918, "TargetVol": 83931, "AnnualPeds": 140758.56546, "lat": 37.747777, "quarter_mile_employment": 0.00438, "high_activity_zone": 0, "LN_TargetVol": 11.33775, "quarter_mile_campus": 0 }, "geometry": { "type": "Point", "coordinates": [ -122.462333, 37.747777 ] } },
{ "type": "Feature", "properties": { "NAME": "PAGE & BAKER", "max_slope": 0.11, "long": -122.4405315, "ID": 40, "traffic_signal": 0, "quarter_mile_households": 0.2662, "TargetVol": 558617, "AnnualPeds": 236884.888596, "lat": 37.7717882, "quarter_mile_employment": 0.01132, "high_activity_zone": 0, "LN_TargetVol": 13.23322, "quarter_mile_campus": 0 }, "geometry": { "type": "Point", "coordinates": [ -122.4405315, 37.7717882 ] } },
{ "type": "Feature", "properties": { "NAME": "PAGE & BUCHANAN", "max_slope": 0.1, "long": -122.4273496, "ID": 41, "traffic_signal": 0, "quarter_mile_households": 0.3705, "TargetVol": 528720, "AnnualPeds": 323626.547885, "lat": 37.7734735, "quarter_mile_employment": 0.02335, "high_activity_zone": 0, "LN_TargetVol": 13.17821, "quarter_mile_campus": 0 }, "geometry": { "type": "Point", "coordinates": [ -122.4273496, 37.7734735 ] } },
{ "type": "Feature", "properties": { "NAME": "PALOU & INGALLS", "max_slope": 0.15, "long": -122.383431, "ID": 42, "traffic_signal": 0, "quarter_mile_households": 0.0879, "TargetVol": 76421, "AnnualPeds": 117024.992257, "lat": 37.729738, "quarter_mile_employment": 0.00866, "high_activity_zone": 0, "LN_TargetVol": 11.24401, "quarter_mile_campus": 0 }, "geometry": { "type": "Point", "coordinates": [ -122.383431, 37.729738 ] } },
{ "type": "Feature", "properties": { "NAME": "POLK & PINE", "max_slope": 0.06, "long": -122.4205116, "ID": 43, "traffic_signal": 1, "quarter_mile_households": 0.6844, "TargetVol": 5184309, "AnnualPeds": 10568942.4415, "lat": 37.7896487, "quarter_mile_employment": 0.06941, "high_activity_zone": 1, "LN_TargetVol": 15.46115, "quarter_mile_campus": 0 }, "geometry": { "type": "Point", "coordinates": [ -122.4205116, 37.7896487 ] } },
{ "type": "Feature", "properties": { "NAME": "POWELL & JACKSON", "max_slope": 0.09, "long": -122.409921, "ID": 44, "traffic_signal": 1, "quarter_mile_households": 0.7178, "TargetVol": 8455639, "AnnualPeds": 8821765.69391, "lat": 37.7956344, "quarter_mile_employment": 0.08622, "high_activity_zone": 1, "LN_TargetVol": 15.95034, "quarter_mile_campus": 0 }, "geometry": { "type": "Point", "coordinates": [ -122.409921, 37.7956344 ] } },
{ "type": "Feature", "properties": { "NAME": "SAN JOSE & RANDALL", "max_slope": 0.08, "long": -122.4242831, "ID": 45, "traffic_signal": 1, "quarter_mile_households": 0.1956, "TargetVol": 953587, "AnnualPeds": 876559.79394, "lat": 37.7398397, "quarter_mile_employment": 0.00894, "high_activity_zone": 0, "LN_TargetVol": 13.76799, "quarter_mile_campus": 0 }, "geometry": { "type": "Point", "coordinates": [ -122.4242831, 37.7398397 ] } },
{ "type": "Feature", "properties": { "NAME": "SARGENT & VICTORIA", "max_slope": 0.14, "long": -122.4653199, "ID": 46, "traffic_signal": 0, "quarter_mile_households": 0.116, "TargetVol": 141108, "AnnualPeds": 133649.40906, "lat": 37.7161258, "quarter_mile_employment": 0.00371, "high_activity_zone": 0, "LN_TargetVol": 11.85728, "quarter_mile_campus": 0 }, "geometry": { "type": "Point", "coordinates": [ -122.4653199, 37.7161258 ] } },
{ "type": "Feature", "properties": { "NAME": "ULLOA & 34TH", "max_slope": 0.09, "long": -122.4916479, "ID": 47, "traffic_signal": 0, "quarter_mile_households": 0.0979, "TargetVol": 217684, "AnnualPeds": 208860.95031, "lat": 37.7404868, "quarter_mile_employment": 0.0075, "high_activity_zone": 0, "LN_TargetVol": 12.2908, "quarter_mile_campus": 0 }, "geometry": { "type": "Point", "coordinates": [ -122.4916479, 37.7404868 ] } },
{ "type": "Feature", "properties": { "NAME": "WASHINGTON & EMBARCADERO", "max_slope": 0.03, "long": -122.3952359, "ID": 48, "traffic_signal": 1, "quarter_mile_households": 0.0721, "TargetVol": 2490947, "AnnualPeds": 6353247.77025, "lat": 37.7967344, "quarter_mile_employment": 0.19999, "high_activity_zone": 1, "LN_TargetVol": 14.72817, "quarter_mile_campus": 0 }, "geometry": { "type": "Point", "coordinates": [ -122.3952359, 37.7967344 ] } },
{ "type": "Feature", "properties": { "NAME": "WASHINGTON & WALNUT", "max_slope": 0.1, "long": -122.4490187, "ID": 49, "traffic_signal": 0, "quarter_mile_households": 0.1547, "TargetVol": 187109, "AnnualPeds": 217392.0099, "lat": 37.7897309, "quarter_mile_employment": 0.02035, "high_activity_zone": 0, "LN_TargetVol": 12.13945, "quarter_mile_campus": 0 }, "geometry": { "type": "Point", "coordinates": [ -122.4490187, 37.7897309 ] } }
]
}
